%time,field.x,field.y,field.z
1456328968859817981,-2.06255510449e-05,-2.32119634748e-05,1.26727387309e-05
1456328968880291938,-2.06591680646e-05,-2.30645567179e-05,1.29023581743e-05
1456328968900362014,-2.06333145499e-05,-2.31164455414e-05,1.26392707229e-05
1456328968920622110,-2.07301512361e-05,-2.305868119e-05,1.27577513456e-05
1456328968941720962,-2.07058295608e-05,-2.32033729553e-05,1.27120509744e-05
1456328968961987018,-2.06183835864e-05,-2.30902060866e-05,1.27910077572e-05
1456328968982213973,-2.06571415067e-05,-2.30848029256e-05,1.26146331429e-05
1456328969002296924,-2.07218229771e-05,-2.3147380352e-05,1.27111122012e-05
1456328969022536039,-2.06898152828e-05,-2.30673879385e-05,1.27101570368e-05
1456328969042588949,-2.05620616674e-05,-2.32428967953e-05,1.27456516027e-05
1456328969062807083,-2.06577599049e-05,-2.30755060911e-05,1.27025023103e-05
1456328969082951068,-2.06013634801e-05,-2.30363354087e-05,1.26463145018e-05
1456328969103113889,-2.0617428422e-05,-2.31082096696e-05,1.26552626491e-05
1456328969123213052,-2.06974878907e-05,-2.31720849872e-05,1.2663641572e-05
1456328969143421888,-2.06338211894e-05,-2.31073826551e-05,1.27111420035e-05
1456328969164396047,-2.06823453307e-05,-2.32663050294e-05,1.27851545811e-05
1456328969184621095,-2.0625884831e-05,-2.31712594628e-05,1.27201408148e-05
1456328969204797029,-2.06249117851e-05,-2.3029281199e-05,1.25820353627e-05
1456328969224868059,-2.07538172603e-05,-2.30993852019e-05,1.27101793885e-05
1456328969245052099,-2.07215890288e-05,-2.30678603053e-05,1.26779362559e-05
1456328969265233039,-2.06573754549e-05,-2.31643214822e-05,1.26478075981e-05
1456328969285500049,-2.06729754806e-05,-2.31091544032e-05,1.25908762217e-05
1456328969305531978,-2.0721526444e-05,-2.30199843645e-05,1.26692309976e-05
1456328969326318025,-2.05453753471e-05,-2.31323257089e-05,1.26481249928e-05
1456328969346803903,-2.06888705492e-05,-2.31973797083e-05,1.25760644674e-05
1456328969366938114,-2.06179410219e-05,-2.31631413102e-05,1.27280786633e-05
1456328969387190103,-2.08009883761e-05,-2.32691377401e-05,1.25923350453e-05
1456328969407505035,-2.06253737211e-05,-2.31323257089e-05,1.26475602388e-05
1456328969427547931,-2.06814333797e-05,-2.31802031398e-05,1.26558750868e-05
1456328969450503110,-2.07219973207e-05,-2.32030197978e-05,1.27359360456e-05
1456328969470783948,-2.06820741296e-05,-2.33788833022e-05,1.27468124032e-05
1456328969490912914,-2.05617263913e-05,-2.32516035438e-05,1.26977756619e-05
1456328969511069059,-2.07621067762e-05,-2.3170787096e-05,1.27511799335e-05
1456328969531342029,-2.06179395318e-05,-2.3155143857e-05,1.27279609442e-05
1456328969551525115,-2.05463409424e-05,-2.31943115592e-05,1.27850517631e-05
1456328969571300029,-2.06429094076e-05,-2.32891216874e-05,1.28657802939e-05
1456328969592900037,-2.05622822046e-05,-2.31864318252e-05,1.27768218517e-05
1456328969613472938,-2.06900477409e-05,-2.31469079852e-05,1.27433329821e-05
1456328969634984970,-2.05314159393e-05,-2.32320666313e-05,1.2937733531e-05
1456328969654958963,-2.07866176963e-05,-2.32177197933e-05,1.28237098455e-05
1456328969674966096,-2.05551937222e-05,-2.32805326581e-05,1.29062771797e-05
1456328969695060014,-2.06669136882e-05,-2.33291164041e-05,1.28662005067e-05
1456328969715647935,-2.05791413784e-05,-2.3320646584e-05,1.28986984491e-05
1456328969735752105,-2.06032529473e-05,-2.33204111457e-05,1.29145279527e-05
1456328969755872964,-2.06036433578e-05,-2.32875883579e-05,1.29700481892e-05
1456328969776000976,-2.06350192428e-05,-2.32488900423e-05,1.28812432289e-05
1456328969796080112,-2.0555254817e-05,-2.33204111457e-05,1.2914866209e-05
1456328969816263914,-2.05554842949e-05,-2.33679324389e-05,1.29475697875e-05
1456328969837378978,-2.0562915504e-05,-2.33051195741e-05,1.28665804863e-05
1456328969857212066,-2.06425264478e-05,-2.33779385686e-05,1.28110855818e-05
1456328969877355098,-2.05875858665e-05,-2.32637092471e-05,1.2961807847e-05
1456328969897521018,-2.05307036638e-05,-2.34415769577e-05,1.28368154168e-05
1456328969917717933,-2.04592600465e-05,-2.33604058623e-05,1.29161313176e-05
1456328969937779903,-2.04198107123e-05,-2.32232406735e-05,1.29943981767e-05
1456328969958509922,-2.0643992722e-05,-2.33988672495e-05,1.30194112659e-05
1456328969978843927,-2.05882653594e-05,-2.329428792e-05,1.30582675338e-05
1456328970000153064,-2.03959360719e-05,-2.33349919319e-05,1.30122169852e-05
1456328970020803928,-2.04443916678e-05,-2.33900412917e-05,1.30766943097e-05
1456328970061096906,-2.03641623259e-05,-2.33425199986e-05,1.30445539951e-05
1456328970081207036,-2.03964546323e-05,-2.34379187226e-05,1.30857408047e-05
1456328970101346969,-2.03805699944e-05,-2.34616801143e-05,1.31022050977e-05
1456328970121648073,-2.02349275351e-05,-2.33611136675e-05,1.28697156906e-05
1456328970141716003,-2.04355537891e-05,-2.34558060765e-05,1.29577130079e-05
1456328970161777019,-2.04284057021e-05,-2.35260277987e-05,1.30788132548e-05
1456328970181997060,-2.02921226621e-05,-2.34786227345e-05,1.30390703678e-05
1456328970202176094,-2.02440172434e-05,-2.3526853323e-05,1.30241170526e-05
1456328970223593950,-2.02439039946e-05,-2.3519089818e-05,1.30080029368e-05
1456328970243515014,-2.03321143985e-05,-2.34146296978e-05,1.30378454924e-05
1456328970263823986,-2.03561767936e-05,-2.34705045819e-05,1.30464985967e-05
1456328970283935070,-2.0299898088e-05,-2.34870925546e-05,1.30071356893e-05
1456328970303971052,-2.02687039971e-05,-2.36374244094e-05,1.31215885282e-05
1456328970324120044,-2.02761292458e-05,-2.3534616828e-05,1.3040009141e-05
1456328970344244956,-2.01725259423e-05,-2.35337913036e-05,1.30967348814e-05
1456328970364351987,-2.021150738e-05,-2.34959185123e-05,1.29518821836e-05
1456328970384457111,-2.03079581261e-05,-2.35189720988e-05,1.3015550375e-05
1456328970404746055,-2.01243177056e-05,-2.36862450838e-05,1.30673184991e-05
1456328970424897909,-2.02605947852e-05,-2.36776560545e-05,1.31062358618e-05
1456328970446055889,-2.02843591571e-05,-2.35821396112e-05,1.30726575851e-05
1456328970465801000,-2.02520743012e-05,-2.35587313771e-05,1.30325332284e-05
1456328970486124038,-2.03074574471e-05,-2.3600025475e-05,1.2944740057e-05
1456328970508147001,-2.01161414385e-05,-2.3630605638e-05,1.30425527692e-05
1456328970528151988,-2.02366501093e-05,-2.3645542562e-05,1.31139323115e-05
1456328970548578977,-2.02276289463e-05,-2.35916733742e-05,1.29691824317e-05
1456328970571398973,-2.02039703727e-05,-2.36229613423e-05,1.30178183317e-05
1456328970591942071,-2.02278643847e-05,-2.37031891942e-05,1.30028307438e-05
1456328970611915111,-2.01477497816e-05,-2.36554294825e-05,1.2986689806e-05
1456328970631994962,-2.02436923981e-05,-2.36555472016e-05,1.29780143499e-05
1456328970652342081,-2.02841997147e-05,-2.36784815788e-05,1.30500748754e-05
1456328970672461986,-2.02677965164e-05,-2.35753193498e-05,1.29926607013e-05
1456328970692714929,-2.03559577465e-05,-2.35189720988e-05,1.30152121186e-05
1456328970714704036,-2.03963726759e-05,-2.37421214581e-05,1.30742281675e-05
1456328970736035108,-2.01951920986e-05,-2.37206026912e-05,1.29073053598e-05
1456328970756170988,-2.03319072723e-05,-2.35910832882e-05,1.30084455013e-05
1456328970776294946,-2.02205300331e-05,-2.35897839069e-05,1.30972221494e-05
1456328970796561002,-2.01876342297e-05,-2.36236691475e-05,1.29699364305e-05
1456328970816703081,-2.02925890684e-05,-2.36216634512e-05,1.31051853299e-05
1456328970836888074,-2.02762022614e-05,-2.37104788423e-05,1.30506023765e-05
1456328970856759071,-2.02035158873e-05,-2.35839098692e-05,1.29532366991e-05
1456328970877866983,-2.02602922916e-05,-2.34782680869e-05,1.30632922053e-05
1456328970897914886,-2.02837318182e-05,-2.3503446579e-05,1.29834890366e-05
1456328970918399095,-2.02274680138e-05,-2.36640185118e-05,1.29462480545e-05
1456328970938502073,-2.02201753855e-05,-2.34305083752e-05,1.30468666553e-05
1456328970958496093,-2.02919200063e-05,-2.36950710416e-05,1.30102619529e-05
1456328970978828907,-2.0259962976e-05,-2.35669672489e-05,1.30165964365e-05
1456328970999052047,-2.02750071883e-05,-2.36009687185e-05,1.28809735179e-05
1456328971019155979,-2.02107787132e-05,-2.35454469919e-05,1.28486037254e-05
1456328971039145946,-2.02511161566e-05,-2.35527381301e-05,1.28964334726e-05
1456328971059391021,-2.02283263206e-05,-2.37982332706e-05,1.30682379007e-05
1456328971079493045,-2.02672272921e-05,-2.35205054283e-05,1.29118457437e-05
1456328971099785089,-2.04045921564e-05,-2.36776560545e-05,1.31052210927e-05
1456328971120874881,-2.01557531953e-05,-2.36794263124e-05,1.29869863391e-05
1456328971141161918,-2.01865047216e-05,-2.36180305481e-05,1.28098398447e-05
1456328971161211013,-2.01318591833e-05,-2.3607198894e-05,1.30020901561e-05
1456328971181272983,-2.02590182424e-05,-2.36809596419e-05,1.28822669387e-05
1456328971201446056,-2.02123001218e-05,-2.35422611237e-05,1.30645751953e-05
1456328971221716880,-2.03068435192e-05,-2.36573174596e-05,1.28575786948e-05
1456328971242733001,-2.02511280775e-05,-2.36647263169e-05,1.28980860114e-05
1456328971262901067,-2.02035650611e-05,-2.35037997365e-05,1.29600554705e-05
1456328971283118963,-2.02519729733e-05,-2.36549571157e-05,1.30179524422e-05
1456328971303116083,-2.02511698008e-05,-2.35206231475e-05,1.29039600492e-05
1456328971323304891,-2.02757388353e-05,-2.35834375024e-05,1.29847243428e-05
1456328971343591928,-2.02914252877e-05,-2.38081216812e-05,1.29399225116e-05
1456328971364797115,-2.00999140739e-05,-2.35910832882e-05,1.30100786686e-05
1456328971384813070,-2.02914625406e-05,-2.36240237951e-05,1.29452079535e-05
1456328971404957056,-2.03079223633e-05,-2.3727068305e-05,1.30106195807e-05
1456328971425050973,-2.02350631356e-05,-2.3568855226e-05,1.28887817264e-05
1456328971445338964,-2.02995792031e-05,-2.36717820168e-05,1.29618570209e-05
1456328971465538024,-2.02595889568e-05,-2.37517729402e-05,1.29633188248e-05
1456328971485544919,-2.03404843807e-05,-2.37178876996e-05,1.30902662873e-05
1456328971505778074,-2.0235568285e-05,-2.35517948866e-05,1.2960536778e-05
1456328971527019023,-2.02199190855e-05,-2.36790716648e-05,1.30105316639e-05
1456328971546937942,-2.03479170799e-05,-2.36870720983e-05,1.30097478628e-05
1456328971567241907,-2.03068479896e-05,-2.36973136663e-05,1.28581687808e-05
1456328971587212085,-2.03550696373e-05,-2.36488476396e-05,1.28891170025e-05
1456328971607116937,-2.02352434397e-05,-2.36884877086e-05,1.29145488143e-05
1456328971627629041,-2.0411285758e-05,-2.36003786325e-05,1.29200100899e-05
1456328971647617101,-2.03156262636e-05,-2.35756739974e-05,1.2968327105e-05
1456328971668325901,-2.02996402979e-05,-2.37116590142e-05,1.29704460502e-05
1456328971690253973,-2.02273458242e-05,-2.35762640834e-05,1.29289522767e-05
1456328971710306882,-2.02676296234e-05,-2.36076697707e-05,1.29691362381e-05
1456328971731368064,-2.03240826726e-05,-2.36387237906e-05,1.30332052708e-05
1456328971751516103,-2.01479807496e-05,-2.37109512091e-05,1.30195111036e-05
1456328971771724939,-2.02277570963e-05,-2.37434193492e-05,1.29874229431e-05
1456328971791907072,-2.02355727553e-05,-2.35917910933e-05,1.2961126864e-05
1456328971812014102,-2.01875120401e-05,-2.35439136624e-05,1.29527583718e-05
1456328971832170009,-2.0331299305e-05,-2.37123668194e-05,1.29222273827e-05
1456328971851999044,-2.02281013131e-05,-2.3790705204e-05,1.30361244082e-05
1456328971872000932,-2.03230187297e-05,-2.36969590187e-05,1.2882052362e-05
1456328971892910957,-2.03313544393e-05,-2.36962512136e-05,1.29299908876e-05
1456328971913273096,-2.01876819134e-05,-2.35435590148e-05,1.29767552018e-05
1456328971933556079,-2.01308518648e-05,-2.36813142896e-05,1.2859171629e-05
1456328971953659057,-2.01950654387e-05,-2.36008509994e-05,1.28895372152e-05
1456328971973807096,-2.03081354499e-05,-2.3606608808e-05,1.30408450961e-05
1456328971993891954,-2.02359780669e-05,-2.36949533224e-05,1.30186542869e-05
1456328972014029979,-2.02431365848e-05,-2.37447172403e-05,1.28993228078e-05
1456328972035300970,-2.03152835369e-05,-2.35363870859e-05,1.29197433591e-05
1456328972055546998,-2.02514514327e-05,-2.35280334949e-05,1.2944072485e-05
1456328972075539112,-2.01956823468e-05,-2.35675573349e-05,1.2977053225e-05
1456328972095645904,-2.02510118484e-05,-2.3632965982e-05,1.28816157579e-05
1456328972116250038,-2.02436238527e-05,-2.35356792808e-05,1.29682451487e-05
1456328972137074947,-2.02671170235e-05,-2.35607385635e-05,1.2896437943e-05
1456328972157103061,-2.03316226602e-05,-2.35676750541e-05,1.2968096137e-05
1456328972177553892,-2.0091816783e-05,-2.374330163e-05,1.2996378541e-05
1456328972197710037,-2.02675834298e-05,-2.37037792802e-05,1.29625543952e-05
1456328972218069076,-2.02519059181e-05,-2.35590860248e-05,1.30085363984e-05
1456328972238240957,-2.02191233635e-05,-2.36087322235e-05,1.28974840045e-05
1456328972258219957,-2.03402027488e-05,-2.37184777856e-05,1.30502700806e-05
1456328972278347015,-2.02113971114e-05,-2.35201522708e-05,1.29362374544e-05
1456328972298275947,-2.0275297761e-05,-2.3680369556e-05,1.29221484065e-05
1456328972318665027,-2.02357918024e-05,-2.35353246331e-05,1.29922956228e-05
1456328972338745117,-2.02590167522e-05,-2.36649632454e-05,1.28820315003e-05
1456328972359020948,-2.04112812877e-05,-2.35523849726e-05,1.29193022847e-05
1456328972379034042,-2.02835783362e-05,-2.36637830734e-05,1.29618525505e-05
1456328972399254083,-2.02907830477e-05,-2.36014410853e-05,1.28488659859e-05
1456328972419397115,-2.02355831861e-05,-2.37037792802e-05,1.29627794027e-05
1456328972440634012,-2.03077465296e-05,-2.36634284258e-05,1.29856795073e-05
1456328972460684061,-2.02673569322e-05,-2.36962512136e-05,1.29304409027e-05
1456328972480778932,-2.01791808009e-05,-2.36086145043e-05,1.29057645798e-05
1456328972500933885,-2.02512457967e-05,-2.37124845386e-05,1.29147917032e-05
1456328972522178888,-2.01792478561e-05,-2.37124845386e-05,1.29152983427e-05
1456328972542234897,-2.03077062964e-05,-2.38155305386e-05,1.29799231887e-05
1456328972562382936,-2.02346265316e-05,-2.37137824297e-05,1.28269150853e-05
1456328972582227945,-2.0243857801e-05,-2.3631195724e-05,1.30016565323e-05
1456328972602277040,-2.02669635415e-05,-2.37050771713e-05,1.28745660186e-05
1456328972622394084,-2.02439874411e-05,-2.37829431891e-05,1.30198970437e-05
1456328972642755985,-2.03073054552e-05,-2.37523630261e-05,1.29229858518e-05
1456328972662745952,-2.03319728374e-05,-2.3686952889e-05,1.3017860055e-05
1456328972682926893,-2.02746242285e-05,-2.36977860332e-05,1.2826398015e-05
1456328972703049898,-2.02677443624e-05,-2.36314311624e-05,1.29854887724e-05
1456328972722951889,-2.02907294035e-05,-2.36255586147e-05,1.28412202001e-05
1456328972744029998,-2.02269658446e-05,-2.3721075058e-05,1.28750830889e-05
1456328972764219999,-2.02024623752e-05,-2.37541332841e-05,1.2803734839e-05
1456328972784352064,-2.02829092741e-05,-2.37211927772e-05,1.28666907549e-05
1456328972804620027,-2.03634664416e-05,-2.37040147185e-05,1.29458799958e-05
1456328972825691938,-2.0307251811e-05,-2.37844780087e-05,1.29154592752e-05
1456328972845930099,-2.03388974071e-05,-2.36252039671e-05,1.28648802638e-05
1456328972866040945,-2.03070789576e-05,-2.37368360162e-05,1.28907546401e-05
1456328972886836051,-2.01950654387e-05,-2.36008509994e-05,1.28895372152e-05
1456328972906835079,-2.02200233936e-05,-2.35988453031e-05,1.30253478885e-05
1456328972926800012,-2.03310623765e-05,-2.35928535461e-05,1.28884613514e-05
1456328972946814060,-2.02195093036e-05,-2.35279157758e-05,1.29522964358e-05
1456328972967005968,-2.021201998e-05,-2.35588505864e-05,1.30248144269e-05
1456328972987739086,-2.02594026923e-05,-2.36001431942e-05,1.293707937e-05
1456328973007971048,-2.02511817217e-05,-2.36406117678e-05,1.29057303071e-05
1456328973030843019,-2.01791852713e-05,-2.36486107111e-05,1.29063546658e-05
1456328973050931930,-2.01235190034e-05,-2.35919088125e-05,1.29539176822e-05
1456328973070862054,-2.03163012862e-05,-2.3574256897e-05,1.3064314425e-05
1456328973091142892,-2.02992349863e-05,-2.36164957285e-05,1.29130378366e-05
1456328973111344099,-2.01787248254e-05,-2.35615640879e-05,1.2841065228e-05
1456328973131639957,-2.00990885496e-05,-2.37768322229e-05,1.28928095102e-05
1456328973151695013,-2.023473382e-05,-2.36495554447e-05,1.28419697285e-05
1456328973171794891,-2.021895051e-05,-2.35770896077e-05,1.28730162978e-05
1456328973191941022,-2.04911231995e-05,-2.36647263169e-05,1.28963947296e-05
1456328973213097095,-2.02428385615e-05,-2.35853254795e-05,1.28569677472e-05
1456328973233289957,-2.02986717224e-05,-2.36096769571e-05,1.2832929194e-05
1456328973253318071,-2.03145667911e-05,-2.36979037523e-05,1.28181174397e-05
1456328973273488998,-2.02262252569e-05,-2.36426174641e-05,1.27699181437e-05
1456328973293929100,-2.03389033675e-05,-2.36891955137e-05,1.28658235073e-05
1456328973314666986,-2.03157499433e-05,-2.37034246325e-05,1.29862129688e-05
1456328973335131883,-2.03638076782e-05,-2.37273037434e-05,1.29942253232e-05
1456328973355070114,-2.02347874641e-05,-2.36334383488e-05,1.28497317433e-05
1456328973375356912,-2.03233540058e-05,-2.36802518368e-05,1.29298090935e-05
1456328973395462989,-2.03474104404e-05,-2.36801341176e-05,1.29376396537e-05
1456328973415812969,-2.0355027914e-05,-2.37929478288e-05,1.28832429647e-05
1456328973435982942,-2.03796893358e-05,-2.3663546145e-05,1.29771739244e-05
1456328973456006050,-2.01867997646e-05,-2.37294286489e-05,1.28514871001e-05
1456328973476169109,-2.02355787158e-05,-2.36477851868e-05,1.29619523883e-05
1456328973496345996,-2.03396365047e-05,-2.37036600709e-05,1.2970046699e-05
1456328973516395092,-2.03555211425e-05,-2.36639007926e-05,1.29533454776e-05
1456328973536621093,-2.03232467175e-05,-2.37284839153e-05,1.2914519012e-05
1456328973556612968,-2.02746763825e-05,-2.36736699939e-05,1.28340423107e-05
1456328973577917098,-2.03079804778e-05,-2.37349480391e-05,1.30187377334e-05
1456328973597987890,-2.02432870865e-05,-2.35523849726e-05,1.2920486927e-05
1456328973617991924,-2.01468974352e-05,-2.35852077603e-05,1.28656432033e-05
1456328973638088941,-2.02512353659e-05,-2.36084967852e-05,1.29132568836e-05
1456328973658411979,-2.03061193228e-05,-2.37308442593e-05,1.27546533942e-05
1456328973678596019,-2.02277988195e-05,-2.35993161798e-05,1.29932954907e-05
1456328973699805021,-2.02114105225e-05,-2.36481383443e-05,1.29381254315e-05
1456328973719968080,-2.03392982483e-05,-2.36963689327e-05,1.29219353199e-05
1456328973740101099,-2.02511966228e-05,-2.37765967846e-05,1.29077374935e-05
1456328973760160923,-2.02025592327e-05,-2.36019134521e-05,1.28174901009e-05
1456328973780500888,-2.02754721045e-05,-2.37280115485e-05,1.29468530416e-05
1456328973800462007,-2.0220144093e-05,-2.36706018448e-05,1.3042409718e-05
1456328973820692062,-2.02914685011e-05,-2.36880153418e-05,1.2946151197e-05
1456328973841861009,-2.02276989818e-05,-2.37275406718e-05,1.29791870713e-05
1456328973862035989,-2.02588349581e-05,-2.35613286495e-05,1.28564998507e-05
1456328973882165908,-2.03060030937e-05,-2.37070828676e-05,1.273830235e-05
1456328973902446985,-2.04104632139e-05,-2.38181263208e-05,1.28032132983e-05
1456328973922420024,-2.04810395837e-05,-2.36930906773e-05,1.26008436084e-05
1456328973942517995,-2.05366939306e-05,-2.36298069358e-05,1.25515133142e-05
1456328973963283061,-2.06801816821e-05,-2.36068695784e-05,1.24781534076e-05
1456328973983880996,-2.06471726298e-05,-2.3656989634e-05,1.23351067305e-05
1456328974003937005,-2.07503691316e-05,-2.35546529293e-05,1.22208543122e-05
1456328974024183988,-2.07744330168e-05,-2.36265271902e-05,1.22297458351e-05
1456328974044272899,-2.09980905056e-05,-2.3643232882e-05,1.21804110706e-05
1456328974064527988,-2.08857640624e-05,-2.37239331007e-05,1.2134385854e-05
1456328974084582090,-2.09566816688e-05,-2.36461833119e-05,1.19807198644e-05
1456328974104739904,-2.09008947015e-05,-2.3501726985e-05,1.20109856129e-05
1456328974124737024,-2.11642861366e-05,-2.36630097032e-05,1.19234979153e-05
1456328974145153999,-2.10437357426e-05,-2.37761765718e-05,1.18460051715e-05
1456328974165167093,-2.11547583342e-05,-2.3610201478e-05,1.17067560554e-05
1456328974185303926,-2.12420776486e-05,-2.35876202583e-05,1.16097956896e-05
1456328974205401897,-2.12823539972e-05,-2.3555034399e-05,1.16490356624e-05
1456328974225617885,-2.13447272778e-05,-2.36384481192e-05,1.14177964628e-05
1456328974246855974,-2.14960992336e-05,-2.35917508602e-05,1.13280296326e-05
1456328974267098903,-2.14710891247e-05,-2.36418694258e-05,1.1184926331e-05
1456328974289149045,-2.14871570468e-05,-2.37537398934e-05,1.11944638193e-05
1456328974309288024,-2.16543629766e-05,-2.37393930554e-05,1.10810592771e-05
1456328974329408884,-2.16292202473e-05,-2.35817715526e-05,1.09188899398e-05
1456328974349556922,-2.17722684145e-05,-2.3679767549e-05,1.07833094895e-05
1456328974370728969,-2.18835219741e-05,-2.35933110118e-05,1.06772363186e-05
1456328974390827894,-2.19551384449e-05,-2.36901253462e-05,1.06221534312e-05
1456328974411140918,-2.19778418541e-05,-2.37008392811e-05,1.04381270707e-05
1456328974431030035,-2.21221730113e-05,-2.36601367593e-05,1.04845158756e-05
1456328974450947046,-2.22015991807e-05,-2.35893234611e-05,1.04029007256e-05
1456328974471946954,-2.23362565041e-05,-2.37201422453e-05,1.02118559182e-05
1456328974492326974,-2.23434090614e-05,-2.37059146166e-05,1.00915804505e-05
1456328974512485027,-2.24461719394e-05,-2.3756505549e-05,9.91557911038e-06
1456328974532650947,-2.24531397223e-05,-2.3582649231e-05,9.76894497871e-06
1456328974554807901,-2.25247919559e-05,-2.3511365056e-05,9.71938297153e-06
1456328974575835943,-2.2684699297e-05,-2.37435758114e-05,9.70567986369e-06
1456328974595885038,-2.26435124874e-05,-2.36980602145e-05,9.53727662563e-06
1456328974615988016,-2.26280212402e-05,-2.37129956484e-05,9.60961580276e-06
1456328974636087894,-2.26985514164e-05,-2.36920669675e-05,9.40078124404e-06
1456328974656341075,-2.28265985847e-05,-2.36359551549e-05,9.40705388784e-06
1456328974676867008,-2.2889252007e-05,-2.37027809024e-05,9.21557173133e-06
1456328974696810007,-2.28717386723e-05,-2.37779587507e-05,9.00077521801e-06
1456328974716861009,-2.3054882884e-05,-2.37237349153e-05,8.87866914272e-06
1456328974737020969,-2.30952620506e-05,-2.35789239407e-05,8.93225520849e-06
1456328974758471012,-2.31420353055e-05,-2.37255051732e-05,8.75806584954e-06
1456328974778680086,-2.31406316161e-05,-2.37764507532e-05,8.55880007148e-06
1456328974798970937,-2.33885020018e-05,-2.36726984382e-05,8.53952094913e-06
1456328974821157932,-2.33083426952e-05,-2.37530440092e-05,8.51726830006e-06
1456328974841068029,-2.34432518482e-05,-2.35873043537e-05,8.36185142398e-06
1456328974861048936,-2.34650596976e-05,-2.36559003592e-05,8.05066898465e-06
1456328974881442070,-2.35279947519e-05,-2.37301334739e-05,7.89930000901e-06
1456328974901715040,-2.36476495862e-05,-2.36988469958e-05,7.84998908639e-06
1456328974921808004,-2.36554771662e-05,-2.36592039466e-05,7.82534554601e-06
1456328974941930055,-2.36786872149e-05,-2.3652857542e-05,7.71307349205e-06
1456328974962218999,-2.38049894571e-05,-2.36164033413e-05,7.47161358595e-06
1456328974982222080,-2.38612890244e-05,-2.37997919321e-05,7.51392841339e-06
1456328975002427101,-2.39162445068e-05,-2.35139474273e-05,7.36530423164e-06
1456328975023578882,-2.37646520138e-05,-2.36171111465e-05,7.42390230298e-06
1456328975043740034,-2.38672986627e-05,-2.36439406872e-05,7.23154917359e-06
1456328975063826084,-2.40588366985e-05,-2.35808908939e-05,7.16526135802e-06
1456328975084016084,-2.42015868425e-05,-2.35194936395e-05,6.98732659221e-06
1456328975104249000,-2.3992420733e-05,-2.36259624362e-05,6.82234838605e-06
1456328975125227928,-2.4240256846e-05,-2.37463027239e-05,6.79837465286e-06
1456328975145348072,-2.4327558279e-05,-2.35637396574e-05,6.6990531981e-06
1456328975165752887,-2.41746261716e-05,-2.37577244639e-05,6.56697526574e-06
1456328975185750007,-2.4238114059e-05,-2.37347900867e-05,6.49417936802e-06
1456328975205893993,-2.44455322623e-05,-2.36239820719e-05,6.41107261181e-06
1456328975225935935,-2.43807926774e-05,-2.35375255346e-05,6.30623847246e-06
1456328975246196985,-2.44198977947e-05,-2.36114069819e-05,6.17903620005e-06
1456328975267319917,-2.44668751955e-05,-2.35335379839e-05,6.03353753686e-06
1456328975287578105,-2.44974240661e-05,-2.36885905266e-05,5.82758188248e-06
1456328975309850931,-2.4679787457e-05,-2.37160101533e-05,5.59467077255e-06
1456328975329751968,-2.48313933611e-05,-2.37488329411e-05,5.53807988763e-06
1456328975350178956,-2.48060941696e-05,-2.37275511026e-05,5.35391904414e-06
1456328975371213912,-2.48851791024e-05,-2.36094519496e-05,5.22360242903e-06
1456328975391185045,-2.4908618629e-05,-2.36426278949e-05,5.14391623437e-06
1456328975411393880,-2.49155566096e-05,-2.3724861443e-05,4.99306023121e-06
1456328975431597948,-2.50602215528e-05,-2.36674517393e-05,5.08720651269e-06
1456328975453816890,-2.49390408397e-05,-2.36619308591e-05,4.91995699704e-06
1456328975473916053,-2.50419676304e-05,-2.36801713705e-05,4.76748049259e-06
1456328975495208024,-2.52179741859e-05,-2.37761601806e-05,4.76765669882e-06
1456328975515188932,-2.5287425518e-05,-2.3677483201e-05,4.40566316247e-06
1456328975536284923,-2.5478631258e-05,-2.36551389098e-05,4.29197177291e-06
1456328975556158065,-2.54674166441e-05,-2.36298680305e-05,3.83561700583e-06
1456328975576566934,-2.5531744957e-05,-2.3573166132e-05,3.88233363628e-06
1456328975596700906,-2.56168752909e-05,-2.36271798611e-05,3.47447618842e-06
1456328975616935014,-2.56484776735e-05,-2.36200079322e-05,3.41814011335e-06
1456328975638015031,-2.56381690502e-05,-2.36408442259e-05,3.09047661722e-06
1456328975658317089,-2.57902771235e-05,-2.36246109009e-05,3.10516767204e-06
1456328975678349971,-2.56696134806e-05,-2.36900180578e-05,3.01096979529e-06
1456328975698637962,-2.59400188923e-05,-2.36213311553e-05,2.78402157128e-06
1456328975718600988,-2.59222209454e-05,-2.36731022596e-05,2.52887643874e-06
1456328975738786935,-2.59864985943e-05,-2.3656514287e-05,2.56818458438e-06
1456328975758913993,-2.59452044964e-05,-2.36672282219e-05,2.38460861146e-06
1456328975780011892,-2.60885298252e-05,-2.37006410956e-05,2.28807907552e-06
1456328975800136089,-2.59911209345e-05,-2.37115904689e-05,2.08890009671e-06
1456328975820416927,-2.610245049e-05,-2.37770006061e-05,1.99306812137e-06
1456328975840425014,-2.61097222567e-05,-2.3810531199e-05,1.88949797302e-06
1456328975860562086,-2.63234168291e-05,-2.39113584161e-05,1.56143605709e-06
1456328975880429983,-2.62500822544e-05,-2.35541120172e-05,1.37265715748e-06
1456328975901340007,-2.63438373804e-05,-2.36628204584e-05,1.05355782434e-06
1456328975922178983,-2.64554351568e-05,-2.36076533794e-05,9.95950214565e-07
1456328975942339897,-2.64462351799e-05,-2.34501495957e-05,8.2566877827e-07
1456328975962503910,-2.63731241226e-05,-2.35884949565e-05,6.68203644454e-07
1456328975982583999,-2.64136344194e-05,-2.36114293337e-05,7.40266311914e-07
1456328976002640008,-2.66117095947e-05,-2.35834464431e-05,4.66421619058e-07
1456328976022845029,-2.65703558922e-05,-2.35542833805e-05,2.7425698936e-07
1456328976044048070,-2.66496151686e-05,-2.35158205032e-05,1.69117248151e-07
1456328976064246892,-2.65834748745e-05,-2.35283046961e-05,-1.34273211006e-07
1456328976084336996,-2.67751485109e-05,-2.36569985747e-05,-1.81731209159e-07
1456328976104576110,-2.66703039408e-05,-2.36507713795e-05,-3.01100499928e-07
1456328976124552965,-2.66934931278e-05,-2.34684422612e-05,-4.15968894958e-07
1456328976145142078,-2.68681973219e-05,-2.34871551394e-05,-6.00948138162e-07
1456328976166968107,-2.69313067198e-05,-2.36250296235e-05,-7.2737573646e-07
1456328976187149047,-2.68978983164e-05,-2.36359775066e-05,-9.27005615085e-07
1456328976207317113,-2.69210964441e-05,-2.35096439719e-05,-1.04104783386e-06
1456328976227333068,-2.6999694109e-05,-2.36005857587e-05,-1.24028651044e-06
1456328976247668027,-2.71121412516e-05,-2.35836431384e-05,-1.1773201637e-06
1456328976267702102,-2.69742816687e-05,-2.35715389252e-05,-1.44056268036e-06
1456328976288783073,-2.70373761654e-05,-2.35334321856e-05,-1.56958661973e-06
1456328976308927059,-2.70994007587e-05,-2.35055670142e-05,-1.85047220439e-06
1456328976329135894,-2.70186722279e-05,-2.35550954938e-05,-1.95318646729e-06
1456328976349253892,-2.70649403334e-05,-2.37107366323e-05,-2.19924934208e-06
1456328976369498014,-2.7127802372e-05,-2.36411049962e-05,-2.36074086279e-06
1456328976389559030,-2.71339893341e-05,-2.35408931971e-05,-2.61829737574e-06
1456328976410537004,-2.71805256605e-05,-2.35599592328e-05,-2.82637178898e-06
1456328976430545091,-2.72349059582e-05,-2.36913695931e-05,-3.05684674531e-06
1456328976450828075,-2.71938681602e-05,-2.35095128417e-05,-3.20326015353e-06
1456328976470860004,-2.71451443434e-05,-2.35510423779e-05,-3.30631807446e-06
1456328976491060018,-2.73131012917e-05,-2.37031430006e-05,-3.31325829029e-06
1456328976511177062,-2.73128092289e-05,-2.36237421632e-05,-3.3544331789e-06
1456328976531337022,-2.7135682106e-05,-2.35621109605e-05,-3.5141158849e-06
1456328976552624940,-2.7335062623e-05,-2.36274003983e-05,-3.60256917775e-06
1456328976572907924,-2.71990567446e-05,-2.35314115882e-05,-3.60302701592e-06
1456328976592859983,-2.73351669312e-05,-2.35391736031e-05,-3.58786918223e-06
1456328976612967967,-2.73016512394e-05,-2.36143544316e-05,-3.80255281925e-06
1456328976633138895,-2.72777616978e-05,-2.35901206732e-05,-3.78674007952e-06
1456328976653326034,-2.71648734808e-05,-2.36959978938e-05,-3.9123993367e-06
1456328976674326896,-2.72926449776e-05,-2.36804708838e-05,-3.94553281367e-06
1456328976694806098,-2.73148953915e-05,-2.36761301756e-05,-4.19378727674e-06
1456328976714926004,-2.73781150579e-05,-2.3741774261e-05,-4.30527813733e-06
1456328976735162019,-2.73624420166e-05,-2.36770749092e-05,-4.25811670721e-06
1456328976755268096,-2.7425724268e-05,-2.3822593689e-05,-4.36042882502e-06
1456328976775432109,-2.73367494345e-05,-2.36246213317e-05,-4.49874103069e-06
1456328976795608043,-2.73124843836e-05,-2.37691953778e-05,-4.53644283116e-06
1456328976816869020,-2.73926973343e-05,-2.36807331443e-05,-4.50630895793e-06
1456328976837109088,-2.73361325264e-05,-2.36819133162e-05,-4.58590388298e-06
1456328976857810974,-2.74303257465e-05,-2.36696913838e-05,-4.84278127551e-06
1456328976878206014,-2.74217158556e-05,-2.37669795752e-05,-4.92929778993e-06
1456328976898344993,-2.73645222187e-05,-2.36494705081e-05,-5.09865060449e-06
1456328976918984889,-2.74106532335e-05,-2.35653743148e-05,-5.36425188184e-06
1456328976939395904,-2.73546129465e-05,-2.37014770508e-05,-5.3698502481e-06
1456328976959784030,-2.74094194174e-05,-2.36239641905e-05,-5.53940199316e-06
1456328976980134963,-2.7304404974e-05,-2.35860943794e-05,-5.68324029446e-06
1456328977000161886,-2.73442357779e-05,-2.36024454236e-05,-5.70728294551e-06
1456328977021205902,-2.74473309517e-05,-2.36203327775e-05,-5.83576224744e-06
1456328977041441917,-2.74378091097e-05,-2.35915228724e-05,-6.05214983225e-06
1456328977061522006,-2.73811340332e-05,-2.36169368029e-05,-6.14738799632e-06
1456328977081700086,-2.73958802223e-05,-2.34915465117e-05,-6.32536560297e-06
1456328977101774930,-2.7459281683e-05,-2.37088218331e-05,-6.41061738133e-06
1456328977122006893,-2.74742394686e-05,-2.34469741583e-05,-6.5586052835e-06
1456328977142177104,-2.74575233459e-05,-2.3592492938e-05,-6.66035488248e-06
1456328977162384986,-2.7376845479e-05,-2.35539138317e-05,-6.75636902452e-06
1456328977183152914,-2.73904383183e-05,-2.37349689007e-05,-7.09783956409e-06
1456328977203649044,-2.74767279625e-05,-2.35625296831e-05,-7.34102353454e-06
1456328977224076986,-2.74212956429e-05,-2.35533490777e-05,-7.26075693965e-06
1456328977245987892,-2.74350404739e-05,-2.3590067029e-05,-7.58035555482e-06
1456328977266177892,-2.74099051952e-05,-2.35124364495e-05,-7.74134546518e-06
1456328977286247968,-2.7361291647e-05,-2.35537290573e-05,-7.8284047544e-06
1456328977306421041,-2.74963378906e-05,-2.36437261105e-05,-7.96404704452e-06
1456328977327616930,-2.73996025324e-05,-2.35812664032e-05,-8.06830078363e-06
1456328977347656965,-2.74148136377e-05,-2.35669210553e-05,-8.18063467741e-06
1456328977367886066,-2.74377882481e-05,-2.34730556607e-05,-8.32619965076e-06
1456328977387993097,-2.74450063705e-05,-2.35546991229e-05,-8.43706130981e-06
1456328977408185005,-2.72835046053e-05,-2.36858725548e-05,-8.65001752973e-06
1456328977428401947,-2.73624181747e-05,-2.35601276159e-05,-8.80444869399e-06
1456328977449738979,-2.73131787777e-05,-2.35947206616e-05,-8.97961556911e-06
1456328977469707012,-2.73198783398e-05,-2.35254436731e-05,-9.16470885277e-06
1456328977489880084,-2.73518323898e-05,-2.36455485225e-05,-9.17116254568e-06
1456328977512119054,-2.75022506714e-05,-2.36488536e-05,-9.39620360732e-06
1456328977556211948,-2.74271458387e-05,-2.35593542457e-05,-9.83705371618e-06
1456328977576148033,-2.7265933156e-05,-2.3817923665e-05,-1.00081272423e-05
1456328977596409082,-2.72411227226e-05,-2.35876008868e-05,-1.01233661175e-05
1456328977616585969,-2.73361057043e-05,-2.35737264156e-05,-1.02682590485e-05
1456328977636912107,-2.73266792297e-05,-2.34486907721e-05,-1.04700639844e-05
1456328977658940076,-2.71018564701e-05,-2.35944449902e-05,-1.05863451958e-05
1456328977679205894,-2.72047758102e-05,-2.35406935215e-05,-1.07398837805e-05
1456328977699980020,-2.71141529083e-05,-2.37542182207e-05,-1.11121460795e-05
1456328977720391988,-2.71283984184e-05,-2.36778855324e-05,-1.13614045084e-05
1456328977740648984,-2.71504253149e-05,-2.36980140209e-05,-1.16413004696e-05
1456328977760742902,-2.70445019007e-05,-2.36140355468e-05,-1.19138300419e-05
1456328977781121015,-2.69322782755e-05,-2.35985100269e-05,-1.19452722371e-05
1456328977802078008,-2.70030409098e-05,-2.35931068659e-05,-1.21218748391e-05
1456328977822309017,-2.68900841475e-05,-2.3611111939e-05,-1.22568301857e-05
1456328977842528104,-2.69524514675e-05,-2.36545294523e-05,-1.24886594713e-05
1456328977864542007,-2.68382966518e-05,-2.34670355916e-05,-1.27946645021e-05
1456328977884733915,-2.6733186841e-05,-2.36453771591e-05,-1.29513129592e-05
1456328977904829025,-2.66760021448e-05,-2.36078590155e-05,-1.31194844842e-05
1456328977924990892,-2.6715144515e-05,-2.35136404634e-05,-1.32411688566e-05
1456328977945523023,-2.66495198011e-05,-2.35970541835e-05,-1.34715080261e-05
1456328977966299057,-2.65028685331e-05,-2.35386073589e-05,-1.38473853469e-05
1456328977986443042,-2.6285520196e-05,-2.35494405031e-05,-1.40377208591e-05
1456328978006596088,-2.63871520758e-05,-2.35543966293e-05,-1.4374409616e-05
1456328978026700973,-2.62813031673e-05,-2.36382827163e-05,-1.46364599466e-05
1456328978046925067,-2.61920064688e-05,-2.35850036144e-05,-1.48206397891e-05
1456328978066987991,-2.62222498655e-05,-2.35006704926e-05,-1.50701314211e-05
1456328978088392972,-2.60455816984e-05,-2.3574078083e-05,-1.51638180017e-05
1456328978109306097,-2.6027572155e-05,-2.37543091178e-05,-1.54490694404e-05
1456328978129460096,-2.60107576847e-05,-2.34919905663e-05,-1.55648365617e-05
1456328978149749040,-2.5995054841e-05,-2.36353829503e-05,-1.55226036906e-05
1456328978170097112,-2.58736521006e-05,-2.36623317003e-05,-1.57213792205e-05
1456328978191020965,-2.5849583745e-05,-2.3558460176e-05,-1.57307416201e-05
1456328978211204051,-2.58248031139e-05,-2.36001089215e-05,-1.58419683576e-05
1456328978231210947,-2.57911115885e-05,-2.36116498709e-05,-1.60815924406e-05
1456328978251266956,-2.57434040308e-05,-2.36830502748e-05,-1.60401985049e-05
1456328978271481037,-2.57349014282e-05,-2.37161099911e-05,-1.61116600037e-05
1456328978291584968,-2.57327973843e-05,-2.35604941845e-05,-1.64099827409e-05
1456328978312491893,-2.56292551756e-05,-2.36155435443e-05,-1.63444295526e-05
1456328978332943916,-2.55389481783e-05,-2.36203819513e-05,-1.66717663407e-05
1456328978353126049,-2.55130261183e-05,-2.3552402854e-05,-1.69446244836e-05
1456328978373153924,-2.5496172905e-05,-2.35141769052e-05,-1.70650854707e-05
1456328978393371105,-2.53754556179e-05,-2.35957026482e-05,-1.7167045176e-05
1456328978414571046,-2.54067212343e-05,-2.3557241261e-05,-1.72718465328e-05
1456328978434669017,-2.5196993351e-05,-2.37528786063e-05,-1.75155162811e-05
1456328978454725980,-2.51406133175e-05,-2.38656923175e-05,-1.75694614649e-05
1456328978474946975,-2.49626755714e-05,-2.36057341099e-05,-1.78440794349e-05
1456328978495083093,-2.49213755131e-05,-2.35844522715e-05,-1.80281281471e-05
1456328978515192031,-2.49759107828e-05,-2.35795199871e-05,-1.82366132736e-05
1456328978535322904,-2.48477458954e-05,-2.35958725214e-05,-1.82594701648e-05
1456328978555433034,-2.48138293624e-05,-2.35918864608e-05,-1.85313284397e-05
1456328978575515031,-2.4798001349e-05,-2.36155301332e-05,-1.85068652034e-05
1456328978595700979,-2.46382296085e-05,-2.36070588231e-05,-1.84738591313e-05
1456328978616748094,-2.47892811894e-05,-2.37370505929e-05,-1.86090245843e-05
1456328978636915922,-2.45721921325e-05,-2.35073179007e-05,-1.87629058957e-05
1456328978657160043,-2.45792478323e-05,-2.36373111606e-05,-1.88970550895e-05
1456328978677474975,-2.43869140744e-05,-2.36380189657e-05,-1.8943695724e-05
1456328978699579000,-2.44256332517e-05,-2.37927168608e-05,-1.91257104278e-05
1456328978719672918,-2.43120521307e-05,-2.37400278449e-05,-1.93497166038e-05
1456328978739326000,-2.41195946932e-05,-2.36369818449e-05,-1.94138914347e-05
1456328978759496927,-2.41981953382e-05,-2.37519204617e-05,-1.9612775743e-05
1456328978779602050,-2.41013407707e-05,-2.36337050796e-05,-1.97338521481e-05
1456328978799678087,-2.38678127527e-05,-2.35169038177e-05,-1.99499592185e-05
1456328978819931030,-2.38434299827e-05,-2.36297175288e-05,-2.00041308999e-05
1456328978841428995,-2.36090868711e-05,-2.3794656992e-05,-2.03360915184e-05
1456328978863387107,-2.355222404e-05,-2.36204475164e-05,-2.045827806e-05
1456328978883799076,-2.35598176718e-05,-2.35172837973e-05,-2.05158606172e-05
1456328978903831958,-2.33981356025e-05,-2.35688194633e-05,-2.07539945841e-05
1456328978924124956,-2.32455298305e-05,-2.36501097679e-05,-2.08397313952e-05
1456328978944354057,-2.31244027615e-05,-2.36444696784e-05,-2.0998981595e-05
1456328978964550018,-2.31723427773e-05,-2.36125916243e-05,-2.10077926517e-05
1456328978985285043,-2.30820789933e-05,-2.3497325182e-05,-2.13288977742e-05
1456328979005762100,-2.29055717587e-05,-2.3458391428e-05,-2.14002385736e-05
1456328979025948047,-2.2737133503e-05,-2.35473260283e-05,-2.14617490768e-05
1456328979046164035,-2.27117910981e-05,-2.36301496625e-05,-2.16523751616e-05
1456328979066550016,-2.25743293762e-05,-2.36332178116e-05,-2.18593880534e-05
1456328979086472988,-2.23805680871e-05,-2.34528973699e-05,-2.21087157726e-05
1456328979106523036,-2.245156914e-05,-2.36310020089e-05,-2.22506076097e-05
1456328979126688957,-2.23069533706e-05,-2.36403003335e-05,-2.23374649882e-05
1456328979147815942,-2.21281498671e-05,-2.37261921167e-05,-2.2734990716e-05
1456328979167984962,-2.17258378863e-05,-2.36190423369e-05,-2.30617836118e-05
1456328979188117027,-2.13884949684e-05,-2.3629873991e-05,-2.32512697577e-05
1456328979208290100,-2.14195206761e-05,-2.34958961606e-05,-2.33894839883e-05
1456328979228440046,-2.11945310235e-05,-2.3681999743e-05,-2.35291704535e-05
1456328979248636960,-2.11288332939e-05,-2.35895499587e-05,-2.37701058388e-05
1456328979269721031,-2.09527134895e-05,-2.3493796587e-05,-2.37862795591e-05
1456328979289926052,-2.07512021065e-05,-2.35449776053e-05,-2.4000133574e-05
1456328979310055971,-2.05816835165e-05,-2.35241666436e-05,-2.42152750492e-05
1456328979330146074,-2.04995542765e-05,-2.36326396465e-05,-2.45171368122e-05
1456328979350344896,-2.0387506485e-05,-2.36887514591e-05,-2.45235204697e-05
1456328979370474100,-2.00903102756e-05,-2.34912529588e-05,-2.46923625469e-05
1456328979391613006,-1.98488667607e-05,-2.36543044448e-05,-2.48962849379e-05
1456328979411771059,-1.98548838496e-05,-2.35624447465e-05,-2.51777201891e-05
1456328979432068109,-1.93799778819e-05,-2.36725702882e-05,-2.55888044834e-05
1456328979452192068,-1.92593455315e-05,-2.35378831625e-05,-2.56779521704e-05
1456328979474251985,-1.89057350159e-05,-2.36852899194e-05,-2.59053200483e-05
1456328979494385957,-1.87856703997e-05,-2.35654219985e-05,-2.59142428637e-05
1456328979514390945,-1.87057435513e-05,-2.37172871828e-05,-2.59034395218e-05
1456328979534507989,-1.85850098729e-05,-2.3686824739e-05,-2.60070502758e-05
1456328979554712057,-1.83601096272e-05,-2.3640717566e-05,-2.61341631413e-05
1456328979574819087,-1.82304218411e-05,-2.36282601953e-05,-2.63734698296e-05
1456328979595062971,-1.81255728006e-05,-2.35740378499e-05,-2.64935433865e-05
1456328979615282058,-1.79337084293e-05,-2.37497806549e-05,-2.64735966921e-05
1456328979635098934,-1.80454626679e-05,-2.35902711749e-05,-2.65087455511e-05
1456328979656161069,-1.77492499352e-05,-2.36387372017e-05,-2.65379428864e-05
1456328979676346063,-1.77401810884e-05,-2.36649766564e-05,-2.66895115376e-05
1456328979696429014,-1.74983337522e-05,-2.37248659134e-05,-2.69509613514e-05
1456328979716698884,-1.73298865557e-05,-2.37098112702e-05,-2.70140051842e-05
1456328979736763000,-1.70635148883e-05,-2.36027806997e-05,-2.7349755168e-05
1456328979758057117,-1.69600978494e-05,-2.3769582808e-05,-2.72665530443e-05
1456328979778073072,-1.69350221753e-05,-2.37238302827e-05,-2.74190694094e-05
1456328979798150062,-1.68152526021e-05,-2.37313568592e-05,-2.7386111021e-05
1456328979818244934,-1.66066899896e-05,-2.36925423145e-05,-2.74652242661e-05
1456328979838427066,-1.63729503751e-05,-2.3728197813e-05,-2.77110844851e-05
1456328979858630895,-1.60851791501e-05,-2.36957281828e-05,-2.76775330305e-05
1456328979878683090,-1.6044101119e-05,-2.36019805074e-05,-2.78306484222e-05
1456328979899059057,-1.59480586648e-05,-2.37300857902e-05,-2.78360813856e-05
1456328979921786069,-1.57703742385e-05,-2.37336263061e-05,-2.80748128891e-05
1456328979942364931,-1.55945450068e-05,-2.37092733383e-05,-2.80499309301e-05
1456328979962454080,-1.55218020082e-05,-2.35828220844e-05,-2.81552940607e-05
1456328979982794046,-1.54479444027e-05,-2.36027151346e-05,-2.84185171127e-05
1456328980002753973,-1.52311637998e-05,-2.36363634467e-05,-2.8528508544e-05
1456328980022886991,-1.5255010128e-05,-2.37967014313e-05,-2.85503149033e-05
1456328980042992115,-1.51280075312e-05,-2.35945984721e-05,-2.84083843231e-05
1456328980063397884,-1.49185538292e-05,-2.36456602812e-05,-2.86141782999e-05
1456328980083501100,-1.46381720901e-05,-2.37104803324e-05,-2.86672562361e-05
1456328980105443000,-1.46457642317e-05,-2.35833197832e-05,-2.87251919508e-05
1456328980125499010,-1.4509268105e-05,-2.36643731594e-05,-2.87950456142e-05
1456328980145787000,-1.44444167614e-05,-2.35781535506e-05,-2.89158761501e-05
1456328980166771888,-1.44049331546e-05,-2.36730799079e-05,-2.88421869278e-05
1456328980187110900,-1.44052237272e-05,-2.37604811788e-05,-2.88008958101e-05
1456328980207313060,-1.40443265438e-05,-2.37143754959e-05,-2.89270490408e-05
1456328980229283094,-1.4059650898e-05,-2.37157911062e-05,-2.90231496096e-05
1456328980249486923,-1.38915941119e-05,-2.36759126186e-05,-2.90305554867e-05
1456328980269793033,-1.3793848455e-05,-2.36715719104e-05,-2.92779654264e-05
1456328980290498971,-1.36029183865e-05,-2.36213356256e-05,-2.91253387928e-05
1456328980310923099,-1.34977430105e-05,-2.36558109522e-05,-2.92921096087e-05
1456328980331080913,-1.3265414536e-05,-2.36885145307e-05,-2.93380022049e-05
1456328980351347923,-1.33138671517e-05,-2.37275660038e-05,-2.92737573385e-05
1456328980371674060,-1.316113621e-05,-2.37131029367e-05,-2.93769061565e-05
1456328980391668081,-1.30165189505e-05,-2.36904039979e-05,-2.94642359018e-05
1456328980412146091,-1.29520654678e-05,-2.36673504114e-05,-2.95281291008e-05
1456328980433075904,-1.27846211195e-05,-2.35461831093e-05,-2.9448723793e-05
1456328980453295946,-1.25197961926e-05,-2.36839383841e-05,-2.9564845562e-05
1456328980473381996,-1.23503424227e-05,-2.37509995699e-05,-2.97706872225e-05
1456328980493665933,-1.22462302446e-05,-2.37352371216e-05,-2.97861933708e-05
1456328980513710021,-1.2046803534e-05,-2.37740531564e-05,-2.97042012215e-05
1456328980533822059,-1.20942905545e-05,-2.37351194024e-05,-2.97771215439e-05
1456328980553881883,-1.19096256793e-05,-2.38005280495e-05,-2.98708707094e-05
1456328980574763059,-1.16198264062e-05,-2.37803086638e-05,-3.01251590252e-05
1456328980595047950,-1.14687368274e-05,-2.38184168935e-05,-2.99955159426e-05
1456328980615480899,-1.11802704632e-05,-2.36033827066e-05,-3.00606638193e-05
1456328980635320901,-1.1179214716e-05,-2.37496092916e-05,-3.0210518837e-05
1456328980655492067,-1.10592670739e-05,-2.36854985356e-05,-3.02026212215e-05
1456328980675590991,-1.0786652565e-05,-2.36707985401e-05,-3.02889257669e-05
1456328980696780920,-1.06906585395e-05,-2.37027958035e-05,-3.02877813578e-05
1456328980716882944,-1.04576162994e-05,-2.39210143685e-05,-3.0434936285e-05
1456328980737124919,-1.04009777308e-05,-2.37303331494e-05,-3.05253654718e-05
1456328980757172107,-1.02656558156e-05,-2.37129196525e-05,-3.04286539555e-05
1456328980777364015,-1.02966412902e-05,-2.37230420113e-05,-3.05727422237e-05
1456328980797538042,-1.01614832878e-05,-2.36652776599e-05,-3.04526269436e-05
1456328980817761898,-1.00331567228e-05,-2.37379789352e-05,-3.04986566305e-05
1456328980838069915,-9.95282009244e-06,-2.37306877971e-05,-3.05462062359e-05
1456328980857966899,-9.9361948669e-06,-2.36839905381e-05,-3.06347876787e-05
1456328980877955913,-9.69649851322e-06,-2.38353833556e-05,-3.05908620358e-05
1456328980898082017,-9.53570008278e-06,-2.37010508776e-05,-3.07037234306e-05
1456328980918633937,-9.56005603075e-06,-2.38843217492e-05,-3.06531846523e-05
1456328980938772916,-9.24753621221e-06,-2.36934050918e-05,-3.0725812912e-05
1456328980960318088,-9.21571329236e-06,-2.37650439143e-05,-3.07005256414e-05
1456328980980441093,-9.08765420318e-06,-2.37011685967e-05,-3.0708566308e-05
1456328981002391099,-9.21526625752e-06,-2.37979844213e-05,-3.07640463114e-05
1456328981024611949,-8.98338332772e-06,-2.37817496061e-05,-3.07466506958e-05
1456328981044632911,-8.73544067144e-06,-2.3733638227e-05,-3.07376116514e-05
1456328981064713001,-8.80625620484e-06,-2.37361162901e-05,-3.09060961008e-05
1456328981084861993,-8.64619761705e-06,-2.36882388592e-05,-3.09136748314e-05
1456328981106060028,-8.4779240191e-06,-2.37128272653e-05,-3.09521347284e-05
1456328981126173019,-8.24605077505e-06,-2.37925812602e-05,-3.09333235025e-05
1456328981146294116,-8.18180665374e-06,-2.36090749502e-05,-3.09675812721e-05
1456328981166548013,-8.03009495139e-06,-2.36324816942e-05,-3.09261590242e-05
1456328981186537027,-7.93343409896e-06,-2.3761883378e-05,-3.10195833445e-05
1456328981207432985,-7.78994187713e-06,-2.37208262086e-05,-3.09471696615e-05
1456328981227540016,-7.61383026838e-06,-2.36970633268e-05,-3.09622824192e-05
1456328981248033046,-7.55631774664e-06,-2.37722426653e-05,-3.11767965555e-05
1456328981268197059,-7.34064802527e-06,-2.36435502768e-05,-3.11291694641e-05
1456328981288331985,-7.29997828603e-06,-2.37009584904e-05,-3.12240481377e-05
1456328981308579921,-7.07694515586e-06,-2.37229511142e-05,-3.10861349106e-05
1456328981328656911,-6.83638080955e-06,-2.36681371927e-05,-3.11652570963e-05
1456328981348763942,-6.61921352148e-06,-2.37746030092e-05,-3.13301801682e-05
1456328981368926048,-6.40356093645e-06,-2.38138899207e-05,-3.12800735235e-05
1456328981389197111,-6.13155812025e-06,-2.37179011106e-05,-3.12795758247e-05
1456328981409195899,-5.80338835716e-06,-2.36302644014e-05,-3.13025593758e-05
1456328981429378986,-5.70694133639e-06,-2.36472085118e-05,-3.13656389713e-05
1456328981449485063,-5.59517294168e-06,-2.36787319183e-05,-3.13323795795e-05
1456328981469651937,-5.37901110947e-06,-2.36950844526e-05,-3.13546180725e-05
1456328981490832090,-5.26578985155e-06,-2.38496631384e-05,-3.15275639296e-05
1456328981511151075,-5.14607876539e-06,-2.38890692592e-05,-3.1486132741e-05
1456328981531114101,-5.17846234143e-06,-2.37922534347e-05,-3.14317852259e-05
1456328981551173925,-4.94608432055e-06,-2.38970682025e-05,-3.14846068621e-05
1456328981572551012,-4.59414720535e-06,-2.38729521632e-05,-3.14744859934e-05
1456328981592668056,-4.38568405807e-06,-2.37059146166e-05,-3.1539490819e-05
1456328981612544059,-4.1138689965e-06,-2.37935513258e-05,-3.15122783184e-05
1456328981632910013,-3.9299197495e-06,-2.36974447966e-05,-3.15043956041e-05
1456328981652652978,-3.75421755016e-06,-2.38088428974e-05,-3.14615130424e-05
1456328981672727108,-3.53726521134e-06,-2.38108485937e-05,-3.15959721804e-05
1456328981692858934,-3.34532745183e-06,-2.38267287612e-05,-3.15863847733e-05
1456328981713274002,-3.05777732283e-06,-2.37457931042e-05,-3.15215438604e-05
1456328981733329057,-2.78597157449e-06,-2.39214211702e-05,-3.14930349588e-05
1456328981754581928,-2.61035617441e-06,-2.3784609139e-05,-3.14378112555e-05
1456328981774813890,-2.42583863437e-06,-2.36416876316e-05,-3.15106272697e-05
1456328981794797897,-2.13757473975e-06,-2.3746265471e-05,-3.15470606089e-05
1456328981814887046,-2.00175978243e-06,-2.38658994436e-05,-3.15203368664e-05
1456328981835031032,-1.91398076713e-06,-2.380143255e-05,-3.14886629581e-05
1456328981855190038,-1.7461059615e-06,-2.3881188035e-05,-3.14703017473e-05
1456328981876286983,-1.55298523605e-06,-2.38995462656e-05,-3.16286921501e-05
1456328981896478891,-1.41742704436e-06,-2.37786158919e-05,-3.15655112267e-05
1456328981916490077,-1.33084049448e-06,-2.3799662292e-05,-3.13645631075e-05
1456328981936764001,-1.25039825216e-06,-2.38646000624e-05,-3.14270496368e-05
1456328981956878900,-1.04960938916e-06,-2.38182574511e-05,-3.15383315086e-05
1456328981976958036,-7.45854759589e-07,-2.39377722144e-05,-3.15024226904e-05
1456328981997072935,-6.42570806667e-07,-2.3752258718e-05,-3.14004212618e-05
1456328982018352031,-2.74640438147e-07,-2.37921357155e-05,-3.13892394304e-05
1456328982038371086,1.34667687234e-08,-2.37763732672e-05,-3.1403440237e-05
1456328982058640956,2.53297574818e-07,-2.37200260162e-05,-3.13785821199e-05
1456328982078696966,4.92665963247e-07,-2.37747222185e-05,-3.12880724669e-05
1456328982098794937,6.45385589451e-07,-2.38642469049e-05,-3.1389695406e-05
1456328982118957996,8.2905208692e-07,-2.37755477428e-05,-3.1341701746e-05
1456328982139050960,1.2288780883e-06,-2.37271994352e-05,-3.13155978918e-05
1456328982159368991,1.24514857307e-06,-2.38317772746e-05,-3.13539415598e-05
1456328982179388046,1.65202300996e-06,-2.3717430234e-05,-3.1192740798e-05
1456328982199683904,1.74051653594e-06,-2.38304793835e-05,-3.1262460351e-05
1456328982219715118,1.81994754821e-06,-2.38612964749e-05,-3.11814367771e-05
1456328982240736961,2.17960793525e-06,-2.37885951996e-05,-3.11319679022e-05
1456328982261200904,2.44331229478e-06,-2.38599985838e-05,-3.10890525579e-05
1456328982281794071,2.45114881545e-06,-2.38036498427e-05,-3.10658246279e-05
1456328982301819086,2.59536653757e-06,-2.38441169262e-05,-3.1096214056e-05
1456328982322021961,2.70752105862e-06,-2.39564582705e-05,-3.1117773056e-05
1456328982342062950,3.01821641624e-06,-2.39617437124e-05,-3.09314787388e-05
1456328982362289905,3.22723798454e-06,-2.38438814878e-05,-3.10757666826e-05
1456328982382340908,3.37100178003e-06,-2.39154025912e-05,-3.10416936874e-05
1456328982402441024,3.59416157007e-06,-2.38096415997e-05,-3.0921664834e-05
1456328982422692060,3.71284931898e-06,-2.39349141717e-05,-3.07349592447e-05
1456328982443015098,4.15306575596e-06,-2.39193871617e-05,-3.07640880346e-05
1456328982463098049,4.5606084168e-06,-2.38784477115e-05,-3.06978106499e-05
1456328982483035087,4.751303792e-06,-2.39157289267e-05,-3.05118948221e-05
1456328982503176927,4.96719330549e-06,-2.38435015082e-05,-3.04954379797e-05
1456328982523318052,5.21595664322e-06,-2.40291327238e-05,-3.06029617786e-05
1456328982543580055,5.39855733514e-06,-2.38901972771e-05,-3.04036974907e-05
1456328982563735008,5.37427291274e-06,-2.39216044545e-05,-3.03633987904e-05
1456328982583952903,5.52620626986e-06,-2.39854797721e-05,-3.03533911705e-05
1456328982604002952,5.61404600739e-06,-2.38811358809e-05,-3.03303033113e-05
1456328982623877048,5.74959591031e-06,-2.38401964307e-05,-3.02659422159e-05
1456328982644320964,5.92596642673e-06,-2.40250021219e-05,-3.03179830313e-05
1456328982664258956,6.00590668619e-06,-2.40408837795e-05,-3.03091824055e-05
1456328982684644937,6.18912540376e-06,-2.39192441106e-05,-3.01976710558e-05
1456328982704787969,6.32477775216e-06,-2.39745289087e-05,-3.01478952169e-05
1456328982724823951,6.38100206852e-06,-2.39750012755e-05,-3.01794946194e-05
1456328982745111942,6.6203802824e-06,-2.39337071776e-05,-3.00904065371e-05
1456328982766257047,6.92301914096e-06,-2.39468738437e-05,-2.98960566521e-05
1456328982786252021,7.30729401112e-06,-2.39154666662e-05,-2.99338161945e-05
1456328982806406974,7.58592784405e-06,-2.39846259356e-05,-2.97388076782e-05
1456328982826472997,7.77696669102e-06,-2.39586234093e-05,-2.96018302441e-05
1456328982846765995,8.01599770784e-06,-2.40206107497e-05,-2.94632136822e-05
1456328982866656064,8.3035454154e-06,-2.39556729794e-05,-2.93981343508e-05
1456328982887032032,8.58241245151e-06,-2.39453136921e-05,-2.92363017797e-05
1456328982908274888,8.91823843122e-06,-2.39129632711e-05,-2.92104125023e-05
1456328982928421974,9.51517522335e-06,-2.39545851946e-05,-2.87735342979e-05
1456328982948462009,9.69882979989e-06,-2.39858731627e-05,-2.87237733603e-05
1456328982968549966,1.00345417857e-05,-2.39532858133e-05,-2.86818802357e-05
1456328982988708972,1.03852383792e-05,-2.39425718784e-05,-2.84955441952e-05
1456328983008900880,1.06961101294e-05,-2.38762199879e-05,-2.83343136311e-05
1456328983029802083,1.10941208899e-05,-2.39440813661e-05,-2.80504673719e-05
1456328983050204038,1.11578427255e-05,-2.38874971867e-05,-2.80108481646e-05
1456328983070317029,1.13659933209e-05,-2.40158364177e-05,-2.80314952135e-05
1456328983090533971,1.14059500396e-05,-2.38797336817e-05,-2.80252188444e-05
1456328983110734939,1.15407124162e-05,-2.38291427493e-05,-2.78489917517e-05
1456328983130928039,1.17158643901e-05,-2.38113746047e-05,-2.77280032635e-05
1456328983151989936,1.17953516543e-05,-2.38503068686e-05,-2.76548624039e-05
1456328983172163009,1.20347768068e-05,-2.38971218467e-05,-2.75724709034e-05
1456328983192209959,1.21140889823e-05,-2.39916950464e-05,-2.74745076895e-05
1456328983212402105,1.23612418771e-05,-2.39419311285e-05,-2.73534834385e-05
1456328983232494115,1.25055253506e-05,-2.38945245743e-05,-2.73931711912e-05
1456328983252669095,1.26874446869e-05,-2.38021686673e-05,-2.7097210288e-05
1456328983272783994,1.28165587783e-05,-2.3892518878e-05,-2.72549897432e-05
1456328983293049097,1.27514392138e-05,-2.38261669874e-05,-2.70964056253e-05
1456328983313194990,1.2855027616e-05,-2.39853233099e-05,-2.70373225212e-05
1456328983333283901,1.29592612386e-05,-2.38818064332e-05,-2.70701169968e-05
1456328983353455066,1.29438236356e-05,-2.38909840584e-05,-2.71501034498e-05
1456328983373532056,1.30561456084e-05,-2.40196794271e-05,-2.71954208612e-05
1456328983394711971,1.3094638288e-05,-2.38805085421e-05,-2.69811719656e-05
1456328983414983034,1.33012726903e-05,-2.39496678114e-05,-2.67866700888e-05
1456328983437159061,1.33017286658e-05,-2.39026173949e-05,-2.68513709307e-05
1456328983457278013,1.33893236518e-05,-2.39737823606e-05,-2.67936974764e-05
1456328983477375984,1.3533423841e-05,-2.40780070424e-05,-2.68071472645e-05
1456328983497539997,1.35732039809e-05,-2.40055426955e-05,-2.67759293318e-05
1456328983517668962,1.35406434536e-05,-2.39803656936e-05,-2.66965210438e-05
1456328983538475036,1.37321382761e-05,-2.3915310204e-05,-2.6624122262e-05
1456328983558573961,1.38201370835e-05,-2.38993123174e-05,-2.6623737812e-05
1456328983579148054,1.38347148895e-05,-2.40243479609e-05,-2.64217615128e-05
1456328983599433898,1.39866515994e-05,-2.40482270718e-05,-2.64123439789e-05
1456328983621246099,1.40591189265e-05,-2.38811895251e-05,-2.64783024788e-05
1456328983641484975,1.42028108239e-05,-2.40965768695e-05,-2.64341056347e-05
1456328983661524057,1.41697987914e-05,-2.40944519639e-05,-2.62903511524e-05
1456328983682701110,1.42014041543e-05,-2.40616291761e-05,-2.62346029282e-05
1456328983703155040,1.44171401858e-05,-2.38690599799e-05,-2.61959224939e-05
1456328983723248004,1.45126223564e-05,-2.39399895072e-05,-2.61221915483e-05
1456328983743407011,1.47201567888e-05,-2.40270361304e-05,-2.60554373264e-05
1456328983763528108,1.48080959916e-05,-2.40349188447e-05,-2.60467022657e-05
1456328983783634901,1.49596467614e-05,-2.39859774709e-05,-2.5982350111e-05
1456328983804110050,1.51187360287e-05,-2.40480840206e-05,-2.58522897959e-05
1456328983825042963,1.53177648783e-05,-2.41100698709e-05,-2.5713956356e-05
1456328983844983100,1.53329640627e-05,-2.42284044623e-05,-2.56000876427e-05
1456328983864968061,1.55484646559e-05,-2.40993559361e-05,-2.55284667015e-05
1456328983884892940,1.56756147742e-05,-2.41055861115e-05,-2.54074633121e-05
1456328983905103921,1.58588737249e-05,-2.4152046442e-05,-2.53014743328e-05
1456328983925750017,1.61287918687e-05,-2.40516886115e-05,-2.50050127506e-05
1456328983945815086,1.62951007485e-05,-2.40161538124e-05,-2.47643321753e-05
1456328983965987920,1.65916532278e-05,-2.40413308144e-05,-2.48418822885e-05
1456328983986099004,1.68692320585e-05,-2.39562645555e-05,-2.44971349835e-05
1456328984006272077,1.70044869184e-05,-2.40427196026e-05,-2.43908926845e-05
1456328984026346921,1.73069536686e-05,-2.40795299411e-05,-2.41721913218e-05
1456328984046631097,1.76404327154e-05,-2.38502427936e-05,-2.3813174665e-05
1456328984067661046,1.79755687714e-05,-2.39604607224e-05,-2.36891716719e-05
1456328984087798118,1.85572251678e-05,-2.41156041622e-05,-2.33547404408e-05
1456328984108046054,1.89062952995e-05,-2.40214765072e-05,-2.29376167059e-05
1456328984128119945,1.91349133849e-05,-2.39664018154e-05,-2.24567547441e-05
1456328984148319005,1.96054443717e-05,-2.38913416862e-05,-2.22465187311e-05
1456328984168512105,1.99314966798e-05,-2.41113036871e-05,-2.19689399004e-05
1456328984188575029,2.02570289373e-05,-2.39301294088e-05,-2.16172710061e-05
1456328984209825992,2.0366589725e-05,-2.40450426936e-05,-2.12707594037e-05
1456328984229909896,2.09560856223e-05,-2.4135838449e-05,-2.09132194519e-05
1456328984250080108,2.13429510593e-05,-2.40851044655e-05,-2.01831459999e-05
1456328984270176887,2.17016860843e-05,-2.424249053e-05,-2.00022727251e-05
1456328984290369033,2.1931950748e-05,-2.40868479013e-05,-1.97549134493e-05
1456328984310532093,2.22494527698e-05,-2.41776451468e-05,-1.93992882967e-05
1456328984331737995,2.27888837457e-05,-2.40720957518e-05,-1.87489613891e-05
1456328984351800918,2.32652038336e-05,-2.41204187274e-05,-1.82248219848e-05
1456328984371937036,2.36867725849e-05,-2.40833476186e-05,-1.78783535957e-05
1456328984392086029,2.38921791315e-05,-2.40459233522e-05,-1.75094097853e-05
1456328984412331104,2.42243900895e-05,-2.41020068526e-05,-1.69701695442e-05
1456328984432372093,2.46046572924e-05,-2.41262152791e-05,-1.64390623569e-05
1456328984452486991,2.4983972311e-05,-2.40924224257e-05,-1.57728001475e-05
1456328984472707986,2.53174841404e-05,-2.40952298045e-05,-1.54183626175e-05
1456328984493863105,2.54121214151e-05,-2.41643890738e-05,-1.52246505022e-05
1456328984514173984,2.56090611219e-05,-2.42780029774e-05,-1.47895291448e-05
1456328984534101009,2.58152723312e-05,-2.40742474794e-05,-1.4535048604e-05
1456328984554255008,2.60846167803e-05,-2.40607008338e-05,-1.41572996974e-05
1456328984574387073,2.6130348444e-05,-2.42239624262e-05,-1.38345271349e-05
1456328984595191955,2.62883126736e-05,-2.42197141051e-05,-1.35454371572e-05
1456328984614779949,2.65906721354e-05,-2.42242902517e-05,-1.33112087846e-05
1456328984634664058,2.67644107342e-05,-2.4243567884e-05,-1.29896566272e-05
1456328984655061960,2.67003566027e-05,-2.42194518447e-05,-1.29824638367e-05
1456328984674897909,2.67378807068e-05,-2.41582646966e-05,-1.26310557127e-05
1456328984696485996,2.69198387861e-05,-2.42740049958e-05,-1.23400278389e-05
1456328984716583013,2.71331816912e-05,-2.42844551802e-05,-1.19623191655e-05
1456328984736547946,2.72441118956e-05,-2.4250215292e-05,-1.18100233376e-05
1456328984756814002,2.74159342051e-05,-2.42654800415e-05,-1.12165093422e-05
1456328984776941061,2.76296854019e-05,-2.41647705436e-05,-1.08964458108e-05
1456328984797178983,2.75887876749e-05,-2.41468831897e-05,-1.07689805329e-05
1456328984817217111,2.78016209602e-05,-2.41642728448e-05,-1.03191651404e-05
1456328984837285041,2.80231893063e-05,-2.41991922259e-05,-9.97304320335e-06
1456328984858496904,2.80293405056e-05,-2.41073071957e-05,-9.71031934023e-06
1456328984878451108,2.81389534473e-05,-2.42703318596e-05,-9.37109813094e-06
1456328984898555994,2.82586723566e-05,-2.42217481136e-05,-9.33096557856e-06
1456328984918777942,2.82970845699e-05,-2.43144318461e-05,-9.10529792309e-06
